City_ID,City,Lat,Lng,Max Temp,Humidity,Cloudiness,Wind Speed,Country,Date
0,ilulissat,69.2167,-51.1,261.16,72,75,1.03,GL,1733159553
1,petropavlovsk-kamchatsky,53.0452,158.6483,273.45,96,100,7.88,RU,1733159555
2,tosontsengel,48.7567,98.2839,256.76,97,100,0.39,MN,1733159556
3,waitangi,-43.9535,-176.5597,285.83,90,87,2.24,NZ,1733159557
4,bilibino,68.0546,166.4372,255.2,99,100,0.36,RU,1733159558
5,wailua homesteads,22.0669,-159.378,295.59,78,0,3.09,US,1733159559
6,ola,59.5833,151.2833,266.25,80,89,5.09,RU,1733159560
7,saldanha,-33.0117,17.9442,291.55,89,66,5.81,ZA,1733159561
8,dhidhdhoo,6.8833,73.1,301.29,67,83,7.9,MV,1733159563
9,uturoa,-16.7333,-151.4333,300.66,77,93,5.62,PF,1733159564
10,bethel,41.3712,-73.414,276.49,56,0,2.57,US,1733159387
11,hawaiian paradise park,19.5933,-154.9731,292.54,95,4,0.45,US,1733159566
12,margate,51.3813,1.3862,281.97,79,52,0.89,GB,1733159567
13,jaraiz de la vera,40.0601,-5.7543,286.57,83,70,1.34,ES,1733159568
14,stillwater,36.1156,-97.0584,280.99,66,0,6.69,US,1733159570
15,fortuna,40.5982,-124.1573,279.66,87,0,5.14,US,1733159571
16,rabigh,22.7986,39.0349,298.32,56,0,2.99,SA,1733159572
17,bredasdorp,-34.5322,20.0403,294.08,71,73,7.02,ZA,1733159573
18,utrik,11.2278,169.8474,301.2,73,97,9.88,MH,1733159574
19,papatowai,-46.5619,169.4708,286.21,93,100,3.39,NZ,1733159575
20,yellowknife,62.456,-114.3525,253.44,84,75,6.17,CA,1733159576
21,iqaluit,63.7506,-68.5145,248.0,69,20,7.2,CA,1733159577
22,trincomalee,8.5711,81.2335,299.2,75,51,4.08,LK,1733159559
23,cambria,35.5641,-121.0808,285.96,83,56,1.51,US,1733159580
24,port-aux-francais,-49.35,70.2167,279.4,96,89,10.07,TF,1733159581
25,port mathurin,-19.6833,63.4167,298.26,73,8,7.16,MU,1733159582
26,sao vicente,-23.9631,-46.3919,302.58,26,100,0.41,BR,1733159361
27,la junta,37.985,-103.5438,274.31,69,0,0.0,US,1733159584
28,gereida,11.2811,25.1414,297.18,14,26,3.97,SD,1733159585
29,grytviken,-54.2811,-36.5092,275.36,100,100,1.15,GS,1733159586
30,hamilton,39.1834,-84.5333,272.95,58,0,3.09,US,1733159544
31,jhajjar,28.6063,76.6565,292.16,34,0,1.85,IN,1733159589
32,zinjibar,13.1287,45.3807,299.71,69,45,3.6,YE,1733159590
33,puerto natales,-51.7236,-72.4875,284.4,50,75,11.32,CL,1733159591
34,puerto ayora,-0.7393,-90.3518,295.82,79,87,4.41,EC,1733159592
35,nam som,17.7704,102.1895,295.97,73,24,0.22,TH,1733159593
36,al qusayr,34.5091,36.5798,283.43,40,44,2.12,SY,1733159594
37,west island,-12.1568,96.8225,301.14,94,100,2.57,CC,1733159595
38,nova sintra,14.8667,-24.7167,298.69,65,58,10.35,CV,1733159597
39,port elizabeth,-33.918,25.5701,293.88,78,0,2.06,ZA,1733159598
40,udachny,66.4167,112.4,241.83,82,12,2.96,RU,1733159599
41,longyearbyen,78.2186,15.6401,261.06,72,40,5.66,SJ,1733159600
42,edinburgh of the seven seas,-37.0676,-12.3116,288.82,87,98,10.86,SH,1733159601
43,port douglas,-16.4833,145.4667,299.64,85,79,1.45,AU,1733159602
44,adamstown,-25.066,-130.1015,296.22,83,98,5.95,PN,1733159603
45,porto tolle,44.9497,12.3245,282.27,64,38,2.06,IT,1733159604
46,kikwit,-5.041,18.8162,296.85,88,54,0.28,CD,1733159605
47,olonkinbyen,70.9221,-8.7187,263.62,62,100,5.75,SJ,1733159607
48,susuman,62.7833,148.1667,253.2,100,96,0.49,RU,1733159608
49,invercargill,-46.4,168.35,287.6,94,100,1.34,NZ,1733159609
50,labytnangi,66.6572,66.4183,259.3,94,100,1.75,RU,1733159610
51,topeka,39.0483,-95.678,272.36,75,100,5.66,US,1733159539
52,la mira,18.035,-102.3266,301.52,56,0,1.87,MX,1733159612
53,biltine,14.5333,20.9167,298.75,13,32,4.07,TD,1733159613
54,mount pearl,47.5166,-52.7813,278.96,83,75,6.69,CA,1733159615
55,newman,37.3138,-121.0208,285.13,53,48,1.18,US,1733159616
56,fale old settlement,-9.3852,-171.2468,300.54,80,42,6.81,TK,1733159617
57,hillsboro,45.5229,-122.9898,275.74,83,79,0.33,US,1733159618
58,stanley,54.868,-1.6985,276.77,84,20,5.14,GB,1733159619
59,sitka,57.0531,-135.33,282.09,93,100,4.63,US,1733159620
60,siasi,5.5462,120.8145,300.99,74,100,2.96,PH,1733159622
61,badger,64.8,-147.5333,252.24,83,40,3.09,US,1733159623
62,college,64.8569,-147.8028,252.29,79,40,3.09,US,1733159624
63,st. john's,47.5649,-52.7093,279.42,84,75,6.69,CA,1733159625
64,klyuchi,52.2667,79.1667,260.28,97,49,2.58,RU,1733159626
65,aykhal,66.0,111.5,245.65,78,8,4.39,RU,1733159627
66,qaqortoq,60.7167,-46.0333,270.55,93,100,2.84,GL,1733159628
67,vrbas,45.5714,19.6408,277.8,81,42,2.92,RS,1733159629
68,margaret river,-33.95,115.0667,289.75,81,100,5.49,AU,1733159630
69,bardoli,21.1167,73.1167,297.25,45,19,3.04,IN,1733159632
70,aasiaat,68.7098,-52.8699,259.25,82,100,2.16,GL,1733159633
71,gadzhiyevo,69.2551,33.3362,270.05,93,62,10.62,RU,1733159634
72,la passe,45.5549,-0.8967,284.94,83,8,4.0,FR,1733159635
73,borgarnes,64.5383,-21.9206,266.62,80,100,5.23,IS,1733159636
74,ust-nera,64.5667,143.2,250.1,100,69,1.39,RU,1733159637
75,dezhou,37.4486,116.2925,273.91,44,100,1.89,CN,1733159638
76,mitu,1.1983,-70.1733,305.17,45,63,1.48,CO,1733159477
77,choyr,46.3611,108.3611,262.0,42,9,4.35,MN,1733159641
78,magistral'nyy,56.1725,107.4458,239.77,100,8,0.97,RU,1733159642
79,yanchep,-31.55,115.6833,288.42,76,23,1.91,AU,1733159643
80,ciudad lazaro cardenas,17.9583,-102.2,301.35,58,0,1.43,MX,1733159644
81,vadso,70.0744,29.7487,272.24,93,75,2.57,NO,1733159645
82,oak island,33.9166,-78.1611,282.07,38,0,4.63,US,1733159646
83,qamdo,31.1667,97.2333,269.94,51,79,1.76,CN,1733159647
84,togur,58.3631,82.8265,266.27,94,100,5.06,RU,1733159648
85,anadyr,64.75,177.4833,258.43,92,0,1.0,RU,1733159650
86,san antonio de pale,-1.4014,5.6325,299.82,80,17,4.05,GQ,1733159651
87,oranjemund,-28.55,16.4333,290.65,84,64,9.14,NA,1733159652
88,pemba,-12.974,40.5178,299.73,70,27,4.27,MZ,1733159653
89,lompoc,34.6391,-120.4579,290.89,74,86,1.36,US,1733159654
90,la leonesa,-27.0379,-58.7035,290.93,72,100,2.93,AR,1733159655
91,mount pleasant,32.7941,-79.8626,284.29,39,0,3.6,US,1733159391
92,constantia,44.1833,28.65,277.53,77,90,6.54,RO,1733159372
93,tome acu,-2.4189,-48.1522,309.24,36,80,2.14,BR,1733159659
94,lloydminster,53.2835,-110.0016,256.61,91,86,4.18,CA,1733159416
95,ribeira brava,32.65,-17.0667,293.77,42,52,1.89,PT,1733159661
96,albany,42.6001,-73.9662,273.4,65,47,1.34,US,1733159662
97,alotau,-10.3069,150.4462,298.14,95,97,1.27,PG,1733159663
98,mar del plata,-38.0023,-57.5575,289.23,54,83,6.71,AR,1733158933
99,zheleznogorsk-ilimskiy,56.5768,104.1217,240.42,99,15,1.46,RU,1733159665
100,ndele,8.4109,20.6473,299.85,23,3,2.28,CF,1733159666
101,kilindoni,-7.9139,39.6668,300.46,73,56,4.4,TZ,1733159667
102,sabha,27.0377,14.4283,289.59,29,95,2.8,LY,1733159669
103,nouadhibou,20.931,-17.0347,300.14,32,1,3.6,MR,1733159670
104,vilyuchinsk,52.9306,158.4028,276.3,98,100,4.34,RU,1733159671
105,santo domingo,18.5001,-69.9886,304.22,71,20,1.34,DO,1733159666
106,touros,-5.1989,-35.4608,302.64,64,26,5.82,BR,1733159674
107,stratford,41.1845,-73.1332,277.96,51,0,2.57,US,1733159675
108,singaraja,-8.112,115.0882,300.12,86,100,2.29,ID,1733159676
109,vernouillet,48.7167,1.3667,282.13,80,23,4.33,FR,1733159677
110,luderitz,-26.6481,15.1594,295.38,57,95,14.2,NA,1733159679
111,hermanus,-34.4187,19.2345,294.15,83,64,6.63,ZA,1733159681
112,tiksi,71.6872,128.8694,249.81,99,68,1.9,RU,1733159682
113,hadibu,12.65,54.0333,298.52,65,8,4.74,YE,1733159683
114,yaren,-0.5472,166.916,301.22,71,58,7.35,NR,1733159684
115,naze,28.3667,129.4833,290.66,65,0,3.12,JP,1733159685
116,remire-montjoly,4.9167,-52.2667,302.17,74,75,5.66,GF,1733159686
117,isafjordur,66.0755,-23.124,269.17,54,40,1.54,IS,1733159688
118,lihue,21.9789,-159.3672,295.92,78,0,3.09,US,1733159689
119,darwin,-12.4611,130.8418,301.42,88,100,0.51,AU,1733159666
120,puerto baquerizo moreno,-0.9,-89.6,298.7,69,40,5.14,EC,1733159691
121,punta arenas,-53.15,-70.9167,284.21,58,75,16.46,CL,1733159430
122,iwaki,37.05,140.8833,282.53,86,0,2.41,JP,1733159461
123,jining,35.405,116.5814,277.37,56,100,2.28,CN,1733159694
124,axim,4.8699,-2.2405,301.35,69,20,4.52,GH,1733159696
125,awjilah,29.1081,21.2869,289.9,38,4,3.51,LY,1733159697
126,vezirkopru,41.1436,35.4547,275.82,80,1,0.57,TR,1733159698
127,dulovo,43.8167,27.15,277.39,79,100,2.26,BG,1733159699
128,spinetta marengo,44.8862,8.6829,277.45,88,33,0.85,IT,1733159700
129,castillos,-34.1667,-53.8333,294.51,43,23,6.45,UY,1733159702
130,itoman,26.1247,127.6694,293.16,73,0,3.09,JP,1733159703
131,bikenibeu village,1.3673,173.1241,301.13,78,20,5.66,KI,1733159704
132,al bayda,32.7627,21.7551,285.09,83,58,4.77,LY,1733159706
133,sao joao da barra,-21.6403,-41.0511,307.2,86,99,7.18,BR,1733159707
134,flying fish cove,-10.4217,105.6791,300.88,78,47,4.05,CX,1733159708
135,thompson,55.7435,-97.8558,247.24,76,40,1.54,CA,1733159709
136,afaahiti,-17.75,-149.2833,299.1,80,95,6.7,PF,1733159710
137,blackmans bay,-43.0167,147.3167,287.44,92,79,2.74,AU,1733159711
138,ar rutbah,33.0381,40.2848,283.46,38,98,2.71,IQ,1733159714
139,saba,15.4667,-86.25,295.18,99,100,0.58,HN,1733159715
140,paita,-5.0892,-81.1144,297.12,65,5,5.42,PE,1733159716
141,namibe,-15.1961,12.1522,295.15,76,63,4.22,AO,1733159717
142,el calafate,-50.3408,-72.2768,284.75,50,82,8.64,AR,1733159718
143,saipan,15.1355,145.701,301.54,86,75,11.32,MP,1733159541
144,shagonar,51.5333,92.8,261.49,95,100,1.16,RU,1733159721
145,atafu village,-8.5421,-172.5159,301.11,77,41,7.35,TK,1733159722
146,khovd,48.0056,91.6419,262.6,83,96,1.13,MN,1733159723
147,bonga,7.2833,36.2333,289.64,84,39,0.54,ET,1733159724
148,tynda,55.1667,124.7167,253.61,95,100,2.92,RU,1733159725
149,dudinka,69.4058,86.1778,262.23,93,100,6.24,RU,1733159726
150,jambi city,-1.6,103.6167,296.78,98,100,1.11,ID,1733159727
151,alice springs,-23.7,133.8833,298.9,65,41,4.63,AU,1733159728
152,nabire,-3.3667,135.4833,297.06,95,100,2.52,ID,1733159729
153,chonchi,-42.6128,-73.8092,289.33,47,88,2.12,CL,1733159731
154,beius,46.6667,22.35,275.61,92,10,1.28,RO,1733159732
155,santiago de cao,-7.9589,-79.2392,292.22,82,20,4.63,PE,1733159733
156,papao,-17.75,-149.55,300.97,78,100,6.92,PF,1733159734
157,santa terezinha,-29.9002,-50.0904,295.81,69,100,3.42,BR,1733159735
158,tarnogskiy gorodok,60.4997,43.5761,274.56,86,79,4.94,RU,1733159736
159,cabo san lucas,22.8909,-109.9124,299.13,62,0,2.57,MX,1733159447
160,avarua,-21.2078,-159.775,296.18,94,100,0.51,CK,1733159639
161,motygino,58.1831,94.7592,259.88,98,99,1.15,RU,1733159739
162,cestos city,5.46,-9.5828,301.45,70,25,4.74,LR,1733159741
163,queenstown,-31.8976,26.8753,291.46,69,55,4.95,ZA,1733159742
164,pionerskiy,54.9508,20.2275,277.06,78,52,8.78,RU,1733159743
165,sinabang,2.4803,96.3801,296.87,91,100,4.38,ID,1733159744
166,jiwani,25.05,61.7417,297.76,54,0,2.67,PK,1733159495
167,bathsheba,13.2167,-59.5167,304.49,55,20,10.29,BB,1733159746
168,al jumum,21.6169,39.6981,298.34,60,1,4.19,SA,1733159747
169,isangel,-19.55,169.2667,296.88,91,13,2.71,VU,1733159749
170,ebon,4.582,168.6964,300.85,80,100,8.0,MH,1733159750
171,minas de marcona,-15.2119,-75.1103,293.48,62,98,6.73,PE,1733159751
172,dunedin,-45.8742,170.5036,286.37,99,100,4.73,NZ,1733159653
173,ancud,-41.8697,-73.8203,286.97,54,32,5.62,CL,1733159753
174,colonia,50.9333,6.95,282.73,87,75,3.6,DE,1733159543
175,mil'kovo,55.6078,37.7956,273.34,61,63,3.59,RU,1733159755
176,villa union,23.2,-106.2333,298.66,69,0,0.0,MX,1733159756
177,letterkenny,54.95,-7.7333,276.43,74,94,1.28,IE,1733159757
178,nar'yan-mar,67.6713,53.087,273.92,98,100,8.27,RU,1733159759
179,bhamo,24.2667,97.2333,290.01,77,3,0.44,MM,1733159760
180,sao geraldo do araguaia,-6.4006,-48.555,302.64,60,98,1.63,BR,1733159761
181,sidney,-33.8679,151.2073,295.99,73,83,4.12,AU,1733159703
182,sola,-13.8833,167.55,300.42,74,78,2.03,VU,1733159763
183,paran'ga,56.7039,49.4047,273.38,95,100,4.29,RU,1733159764
184,vorgashor,67.5833,63.95,264.01,94,100,3.72,RU,1733159765
185,nyrob,60.733,56.7202,274.64,98,100,4.95,RU,1733159766
186,goderich,43.7501,-81.7165,272.33,100,100,3.6,CA,1733159663
187,visby,57.6409,18.296,279.84,93,75,6.69,SE,1733159769
188,akjoujt,19.6969,-14.4164,303.12,8,11,5.3,MR,1733159770
189,hays,30.0502,-98.0336,290.39,58,97,4.52,US,1733159771
190,buturlinovka,50.8239,40.6092,272.06,98,100,2.17,RU,1733159772
191,novyy urengoy,66.0833,76.6333,258.43,88,98,5.94,RU,1733159773
192,gisborne,-38.6533,178.0042,288.76,87,100,4.41,NZ,1733159774
193,hersbruck,49.5125,11.4339,275.85,91,98,1.63,DE,1733159775
194,chernyshevskiy,63.0128,112.4714,237.97,100,42,1.22,RU,1733159776
195,tura,25.5198,90.2201,289.1,89,0,1.64,IN,1733159778
196,uyar,55.81,94.3153,266.38,97,100,1.64,RU,1733159779
197,ushuaia,-54.8,-68.3,280.96,81,75,7.2,AR,1733159780
198,gwadar,25.1216,62.3254,297.14,56,0,2.08,PK,1733159781
199,ribeira grande,38.5167,-28.7,294.14,77,75,5.14,PT,1733159782
200,eten,-6.9081,-79.8642,299.29,57,0,8.23,PE,1733159783
201,lebu,-37.6167,-73.65,286.32,62,1,10.01,CL,1733159730
202,borba,-4.3878,-59.5939,312.15,27,70,2.52,BR,1733159785
203,tazovsky,67.4667,78.7,258.95,93,100,4.35,RU,1733159548
204,tutoia,-2.7619,-42.2744,302.77,60,37,6.13,BR,1733159787
205,mount isa,-20.7333,139.5,297.02,94,100,2.06,AU,1733159789
206,holualoa,19.6228,-155.9522,294.01,71,0,1.54,US,1733159790
207,berdigestyakh,62.0989,126.6992,250.35,98,100,1.42,RU,1733159791
208,lichuan,30.3,108.85,282.44,88,97,0.81,CN,1733159792
209,egilsstadir,65.2653,-14.3948,259.1,72,75,2.06,IS,1733159793
210,nemuro,43.3236,145.575,281.58,77,96,7.71,JP,1733159794
211,york,40.1254,-77.0,276.06,54,20,5.14,US,1733159795
212,crane,31.3974,-102.3501,285.14,79,83,4.48,US,1733159798
213,kertih,4.5141,103.4483,298.2,94,100,0.0,MY,1733159799
214,fruita,39.1589,-108.729,276.27,60,0,3.09,US,1733159800
215,sannicandro garganico,41.8384,15.5654,285.02,79,100,4.15,IT,1733159801
216,vila franca do campo,37.7167,-25.4333,291.42,99,58,0.98,PT,1733159802
217,ingeniero jacobacci,-41.3427,-69.5448,288.49,14,7,6.72,AR,1733159803
218,verkhniye kigi,55.4083,58.6044,269.11,92,100,3.83,RU,1733159804
219,woolgoolga,-30.1106,153.2007,297.08,93,59,4.96,AU,1733159806
220,zakopane,49.299,19.9489,272.42,88,3,2.01,PL,1733159807
221,iganga,0.6092,33.4686,294.98,68,94,2.23,UG,1733159808
222,kristiansund,63.1115,7.732,274.33,86,100,5.14,NO,1733159809
223,island harbour,50.724,-1.2758,282.19,57,35,2.68,GB,1733159810
224,conception bay south,47.4999,-52.9981,279.29,83,33,7.22,CA,1733159652
225,macau,22.2006,113.5461,294.0,78,0,3.6,MO,1733159659
226,ouani,-12.1322,44.4258,300.31,75,82,2.47,KM,1733159813
227,iskateley,67.6803,53.1512,273.87,98,100,8.23,RU,1733159814
228,yuzhno-kurilsk,44.0306,145.8556,279.46,83,99,7.28,RU,1733159816
229,menaka,15.9182,2.4022,300.74,9,82,4.12,ML,1733159817
230,prince rupert,54.3161,-130.3201,281.98,92,100,17.49,CA,1733159818
231,saint-pierre,-21.3393,55.4781,298.97,69,0,1.03,RE,1733159819
232,maun,-19.9833,23.4167,306.13,19,20,1.54,BW,1733159820
233,kingston,17.997,-76.7936,303.24,73,90,0.41,JM,1733159233
234,khilok,51.3674,110.4676,248.41,95,57,1.35,RU,1733159822
235,menongue,-14.6585,17.691,300.11,30,69,1.58,AO,1733159823
236,pekalongan,-6.8886,109.6753,299.07,86,100,2.28,ID,1733159824
237,necochea,-38.5473,-58.7368,284.23,76,97,5.95,AR,1733159714
238,dickinson,29.4608,-95.0513,290.94,58,0,6.69,US,1733159622
239,guerrero negro,27.9769,-114.0611,292.3,62,100,2.38,MX,1733159828
240,coquimbo,-29.9533,-71.3436,292.0,59,0,7.72,CL,1733159762
241,hoemul-li,41.4339,129.67,272.8,51,46,2.33,KP,1733159830
242,sosnovo-ozerskoye,52.5249,111.5418,245.17,99,51,1.67,RU,1733159831
243,murzuq,25.9155,13.9184,289.47,28,90,1.98,LY,1733159832
244,raduzhny,62.0961,77.475,255.52,100,97,1.31,RU,1733159833
245,praia da vitoria,38.7333,-27.0667,293.29,77,75,3.11,PT,1733159834
246,antalaha,-14.9003,50.2788,297.39,88,84,1.38,MG,1733159836
247,talnakh,69.4865,88.3972,262.63,92,100,5.8,RU,1733159837
248,vilyuysk,63.7553,121.6247,242.63,96,99,1.88,RU,1733159838
249,cadale,2.7603,46.3222,300.02,69,16,8.82,SO,1733159839
250,usinsk,65.9939,57.5281,273.1,99,100,8.99,RU,1733159840
251,harper,4.375,-7.7169,301.31,68,20,3.98,LR,1733159841
252,lautoka,-17.6167,177.4667,297.07,88,75,2.06,FJ,1733159842
253,colonia menno,-22.3667,-59.8167,301.34,71,86,3.6,PY,1733159844
254,magadan,59.5667,150.8,268.66,74,95,5.55,RU,1733159845
255,port alfred,-33.5906,26.891,293.81,79,76,0.89,ZA,1733159846
256,keflavik,64.0049,-22.5624,275.39,93,100,13.38,IS,1733159847
257,speedway,39.8023,-86.2672,271.6,62,75,2.57,US,1733159848
258,hithadhoo,-0.6,73.0833,300.42,80,100,9.01,MV,1733159849
259,araripina,-7.5761,-40.4983,304.03,39,67,2.07,BR,1733159850
260,san andres,12.5847,-81.7006,303.16,79,20,8.75,CO,1733159851
261,tsiombe,-25.3,45.4833,297.35,82,25,5.69,MG,1733159853
262,brigantine,39.4101,-74.3646,277.59,54,0,4.12,US,1733159855
263,bubaque,11.2833,-15.8333,301.43,53,99,3.67,GW,1733159856
264,sao joao del rei,-21.1356,-44.2617,300.57,61,99,4.44,BR,1733159857
265,karratha,-20.7377,116.8463,300.83,43,6,7.18,AU,1733159858
266,villa rica,33.7321,-84.9191,280.03,50,1,1.34,US,1733159859
267,tralee,52.2704,-9.7026,279.29,87,0,0.51,IE,1733159860
268,greenville,35.6127,-77.3663,279.89,38,0,2.57,US,1733159678
269,marsh harbour,26.5412,-77.0636,295.33,70,30,10.2,BS,1733159863
270,semirom,31.4167,51.5667,272.88,40,41,1.4,IR,1733159864
271,kodiak,57.79,-152.4072,274.88,93,100,3.09,US,1733159866
272,al kawa,13.7463,32.4996,299.7,17,41,4.53,SD,1733159867
273,whitehorse,60.7161,-135.0538,254.58,78,75,1.54,CA,1733159869
274,port lincoln,-34.7333,135.8667,289.57,84,46,7.5,AU,1733159870
275,sumenep,-7.0167,113.8667,299.14,83,96,1.51,ID,1733159871
276,las tablas,7.7667,-80.2833,302.21,72,100,4.12,PA,1733159872
277,djenne,13.9061,-4.5533,304.24,11,96,2.64,ML,1733159873
278,kalevala,65.2,31.1667,275.74,97,100,6.67,RU,1733159874
279,rikaze,29.25,88.8833,273.11,21,0,1.55,CN,1733159875
280,san patricio,28.017,-97.5169,294.12,54,100,6.14,US,1733159876
281,hami,42.8,93.45,272.11,69,100,0.56,CN,1733159878
282,priozersk,61.0393,30.1291,275.93,87,100,6.63,RU,1733159879
283,bardai,11.65,7.2333,296.52,22,49,3.7,NG,1733159880
284,swakopmund,-22.6833,14.5333,289.2,82,55,2.69,NA,1733159881
285,shahabad,27.65,79.95,291.57,31,0,1.84,IN,1733159882
286,kerikeri,-35.2268,173.9474,285.88,94,100,0.64,NZ,1733159883
287,ma'an,26.9775,110.7211,290.08,60,98,1.79,CN,1733159884
288,mosopa,-24.7718,25.4216,303.72,14,92,1.77,BW,1733159885
289,devonport,-41.1667,146.35,288.44,96,100,3.62,AU,1733159886
290,nyurba,63.2842,118.3319,244.65,95,95,2.15,RU,1733159888
291,birao,10.2849,22.7882,298.01,18,43,2.53,CF,1733159889
292,sault ste. marie,46.5168,-84.3333,271.31,86,100,3.09,CA,1733159890
293,carnarvon,-24.8667,113.6333,293.83,67,0,6.61,AU,1733159891
294,onega,63.9061,38.1404,275.82,87,100,7.8,RU,1733159892
295,schwerin,53.6294,11.4132,279.9,95,100,1.79,DE,1733159894
296,xinyuan,37.3,99.0,258.25,63,0,3.1,CN,1733159896
297,kailua-kona,19.6406,-155.9956,296.08,70,0,1.54,US,1733159898
298,reggio calabria,38.3167,16.0833,279.97,93,59,1.89,IT,1733159899
299,nadym,65.5333,72.5167,256.86,87,15,5.24,RU,1733159862
300,tongliao,43.6125,122.2653,262.91,44,2,3.69,CN,1733159835
301,tyukhtet,56.5389,89.3011,263.95,86,96,5.38,RU,1733159903
302,chongwe,-15.3292,28.682,297.29,24,37,2.42,ZM,1733159904
303,perry,37.2506,-83.1999,272.52,55,100,2.26,US,1733159905
304,taltal,-25.4,-70.4833,292.97,66,43,4.26,CL,1733159776
305,the pas,53.8251,-101.2541,255.16,85,0,2.57,CA,1733159907
306,lubango,-14.9172,13.4925,294.82,59,62,3.3,AO,1733159867
307,morondava,-20.2833,44.2833,300.17,77,0,4.06,MG,1733159909
308,vyerkhnyadzvinsk,55.7815,27.9443,275.2,90,6,5.91,BY,1733159910
309,khairagarh,26.95,77.8167,291.36,38,0,1.41,IN,1733159912
310,kaa-khem,51.6833,94.7333,260.78,91,87,1.25,RU,1733159913
311,pointe-noire,-4.7761,11.8635,299.69,82,99,2.37,CG,1733159914
312,iwon-up,40.3231,128.6553,273.27,90,100,3.43,KP,1733159916
313,hirara,24.8,125.2833,295.07,68,20,5.66,JP,1733159917
314,jamestown,42.097,-79.2353,272.6,96,100,4.12,US,1733159918
315,broken hill,-31.95,141.4333,294.32,85,42,8.75,AU,1733159920
316,bechar,31.6167,-2.2167,294.33,26,0,1.54,DZ,1733159922
317,tromso,69.6496,18.957,272.16,59,75,5.66,NO,1733159731
318,new norfolk,-42.7826,147.0587,288.1,90,96,0.99,AU,1733159924
319,lavelanet,42.9313,1.8466,283.74,88,95,0.89,FR,1733159925
320,itamaraca,-7.7478,-34.8256,301.63,66,44,4.43,BR,1733159926
321,mugia,43.1041,-9.2179,286.88,74,88,4.65,ES,1733159928
322,malvan,16.0667,73.4667,300.39,76,55,3.97,IN,1733159929
323,jakobstad,63.6749,22.7026,274.84,62,100,5.55,FI,1733159930
324,qulsary,46.9531,54.0198,271.25,70,89,1.44,KZ,1733159931
325,peace river,56.2501,-117.286,261.32,97,100,4.12,CA,1733159751
326,khvalynsk,52.4906,48.1058,272.05,91,37,2.69,RU,1733159933
327,hasaki,35.7333,140.8333,288.9,64,14,3.61,JP,1733159934
328,mhamid,29.82,-5.72,295.57,23,0,1.31,MA,1733159935
329,dryden,49.7833,-92.7503,263.31,85,100,2.06,CA,1733159936
330,salinopolis,-0.6136,-47.3561,302.71,67,25,4.82,BR,1733159938
331,argo,37.6333,22.7333,284.22,93,100,2.87,GR,1733159939
332,kone,-21.0595,164.8658,296.92,78,46,2.45,NC,1733159940
333,aginskoye,51.1,114.53,254.56,79,56,6.63,RU,1733159941
334,sisimiut,66.9395,-53.6735,265.4,76,100,3.44,GL,1733159942
335,moussoro,13.6408,16.4901,298.85,14,93,4.13,TD,1733159943
336,haiku-pauwela,20.9219,-156.3051,294.28,76,8,3.13,US,1733159944
337,callao,-12.0667,-77.15,296.31,68,75,3.09,PE,1733159683
338,staroshcherbinovskaya,46.6311,38.6742,273.18,80,39,4.18,RU,1733159947
339,korla,41.7597,86.1469,273.37,61,51,0.66,CN,1733159948
340,santa ana de yacuma,-13.75,-65.4333,307.12,59,75,6.69,BO,1733159949
341,jurm,36.8648,70.8342,274.09,75,100,1.85,AF,1733159950
342,porto novo,6.4965,2.6036,301.58,60,2,3.8,BJ,1733159851
343,abadeh,31.1608,52.6506,276.58,45,20,1.45,IR,1733159952
344,esmeraldas,-19.7625,-44.3139,300.61,66,72,4.02,BR,1733159676
345,quelimane,-17.8786,36.8883,299.12,69,20,2.57,MZ,1733159956
346,forster,-32.1667,152.5167,295.03,94,54,4.94,AU,1733159957
347,itaituba,-4.2761,-55.9836,305.24,66,75,1.03,BR,1733159958
348,turpan,42.9333,89.1667,276.74,40,100,0.99,CN,1733159959
349,coahuayana de hidalgo,18.7,-103.6583,303.07,52,0,1.8,MX,1733159960
350,kruje,41.5092,19.7928,280.16,62,0,1.54,AL,1733159961
351,yenangyaung,20.4667,94.8833,296.73,64,24,1.65,MM,1733159962
352,kasempa,-13.4584,25.8338,296.02,41,43,1.93,ZM,1733159963
353,savonlinna,61.8699,28.88,277.18,75,100,9.26,FI,1733159964
354,hrebinka,50.1171,32.4361,271.65,88,7,2.76,UA,1733159966
355,tokar,18.4254,37.729,298.61,64,66,4.03,SD,1733159967
356,akureyri,65.6835,-18.0878,256.11,78,40,3.09,IS,1733159968
357,box elder,41.5005,-112.8764,276.68,43,68,1.4,US,1733159970
358,tevriz,57.509,72.4042,268.37,94,100,2.97,RU,1733159971
359,uzgen,40.7699,73.3007,274.45,57,5,1.75,KG,1733159972
360,shakawe,-18.3667,21.85,305.29,18,75,3.73,BW,1733159974
361,lata,40.1629,-8.3327,286.32,85,35,1.75,PT,1733159975
362,creel,27.75,-107.6333,288.87,12,100,2.38,MX,1733159976
363,chuzhou,32.3219,118.2978,281.42,83,10,4.87,CN,1733159977
364,daru,-9.0763,143.2092,298.78,89,40,1.83,PG,1733159979
365,fisterra,42.9049,-9.2629,287.36,71,97,6.02,ES,1733159980
366,khonsa,27.0167,95.5667,288.51,77,0,2.07,IN,1733159981
367,bairnsdale,-37.8333,147.6167,292.24,66,100,1.52,AU,1733159983
368,karema,-6.8205,30.4389,293.81,92,100,1.02,TZ,1733159984
369,gofitskoye,45.0792,43.0464,274.26,88,96,7.06,RU,1733159985
370,popondetta,-8.7537,148.2534,296.81,96,75,1.41,PG,1733159986
371,venice,27.0998,-82.4543,291.51,38,0,2.24,US,1733159987
372,malanje,-9.5402,16.341,293.62,90,99,1.35,AO,1733159988
373,pleasanton,37.6624,-121.8747,286.84,59,40,1.39,US,1733159989
374,twin falls,42.3505,-114.6445,273.34,69,0,3.09,US,1733159990
375,cold lake,54.4502,-110.2017,258.12,72,100,4.63,CA,1733159992
376,glendale,33.5387,-112.186,293.51,28,0,1.54,US,1733159799
377,keyser,39.4409,-78.9739,274.4,59,0,1.34,US,1733159994
378,aden,12.7794,45.0367,299.92,70,51,4.69,YE,1733159995
379,batticaloa,7.7102,81.6924,299.04,82,45,0.54,LK,1733159996
380,chapadinha,-3.7417,-43.3603,307.52,36,73,2.3,BR,1733159997
381,alo,6.5486,4.2686,301.03,68,4,4.86,NG,1733159998
382,nogliki,51.8333,143.1667,271.29,82,96,8.57,RU,1733159999
383,khanpur mahar,27.8436,69.4137,295.14,31,0,3.52,PK,1733160000
384,barra,-11.0894,-43.1417,306.65,32,80,3.6,BR,1733159880
385,orenburg,51.7727,55.0988,271.16,82,76,3.06,RU,1733160003
386,ballina,-28.8667,153.5667,295.93,92,4,5.29,AU,1733160004
387,paka,4.6374,103.4368,298.14,94,91,0.0,MY,1733160005
388,petawawa,45.9001,-77.3328,271.92,75,100,4.12,CA,1733159848
389,klaksvik,62.2266,-6.589,273.16,59,100,4.88,FO,1733160007
390,kiruna,67.8557,20.2251,265.66,68,0,5.14,SE,1733160009
391,kragujevac,44.0167,20.9167,276.81,93,100,1.92,RS,1733160010
392,east ballina,-28.8667,153.5833,295.93,92,4,5.29,AU,1733160011
393,san julian,21.0167,-102.1667,292.56,30,0,4.27,MX,1733160012
394,piscu,45.5,27.7333,275.78,76,35,2.43,RO,1733160013
395,kourou,5.1552,-52.6478,299.86,89,84,3.96,GF,1733160014
396,georgetown,5.4112,100.3354,301.11,82,20,1.54,MY,1733159757
397,kirakira,-10.4544,161.9205,299.22,82,1,0.39,SB,1733160016
398,upper grand lagoon,30.1633,-85.7408,288.72,48,0,2.68,US,1733159871
399,padampur,29.6833,73.6167,293.04,35,2,1.7,IN,1733160019
400,malango,-2.9627,119.9001,292.84,99,99,1.11,ID,1733160020
401,codrington,-38.2667,141.9667,290.96,99,100,1.97,AU,1733160022
402,santarem,-2.4431,-54.7083,308.22,46,20,6.69,BR,1733159824
403,vorotynsk,54.4283,36.0465,273.55,99,100,3.86,RU,1733160024
404,chapaev,50.2,51.1667,272.11,86,100,3.36,KZ,1733160026
405,walvis bay,-22.9575,14.5053,290.91,73,25,5.06,NA,1733160027
406,wajir,1.7471,40.0573,303.48,37,46,3.07,KE,1733160028
407,spring creek,40.7266,-115.5859,276.68,45,91,0.86,US,1733160029
408,happy valley-goose bay,53.3168,-60.3315,272.32,69,75,4.63,CA,1733160030
409,geraldton,-28.7667,114.6,290.38,72,40,2.06,AU,1733160031
410,enewetak,11.3474,162.3373,300.94,79,60,10.85,MH,1733160032
411,tucuma,-0.1833,-50.05,304.66,56,37,4.08,BR,1733160033
412,cockburn town,21.4612,-71.1419,300.22,70,57,1.87,TC,1733160036
413,jiayuguan,39.8167,98.3,268.53,48,29,1.94,CN,1733159780
414,moose jaw,50.4001,-105.5344,261.3,78,100,6.17,CA,1733160038
415,morahalom,46.2181,19.8851,277.28,77,27,2.29,HU,1733160039
416,itacarambi,-15.1022,-44.0919,304.23,55,97,1.69,BR,1733160040
417,nova vicosa,-17.8919,-39.3719,304.22,56,41,7.09,BR,1733160041
418,guayaramerin,-10.8368,-65.3614,308.18,38,0,5.14,BO,1733160042
419,mareeba,-17.0,145.4333,295.51,92,45,1.07,AU,1733160044
420,diamantina,-18.2494,-43.6003,298.37,64,90,3.7,BR,1733160045
421,abu jibeha,11.4562,31.2285,298.54,19,37,3.59,SD,1733159854
422,katsuura,35.1333,140.3,288.27,63,3,5.56,JP,1733160048
423,aguada de pasajeros,22.385,-80.8508,298.4,59,81,6.22,CU,1733160049
424,champerico,14.3,-91.9167,301.55,59,97,1.74,GT,1733160050
425,kota belud,6.351,116.4305,298.49,89,56,1.91,MY,1733160052
426,zhanaozen,43.3,52.8,273.27,72,7,4.0,KZ,1733160053
427,vila velha,-20.3297,-40.2925,305.12,74,20,7.72,BR,1733159933
428,pindushi,62.9152,34.58,276.22,84,92,6.7,RU,1733160055
429,baihe,22.15,107.2333,293.53,72,100,0.95,CN,1733160056
430,usogorsk,63.4106,48.6872,276.16,97,100,5.9,RU,1733160057
431,severo-yeniseyskiy,60.3725,93.0408,258.62,94,100,2.25,RU,1733160058
432,rokytne,51.2796,27.214,274.07,91,6,3.41,UA,1733160059
433,alto araguaia,-17.3147,-53.2153,298.1,76,98,3.73,BR,1733160060
434,puerto deseado,-47.7503,-65.8938,284.0,53,98,12.63,AR,1733160062
435,baruun-urt,46.6806,113.2792,256.27,85,1,2.95,MN,1733160014
436,rio grande,-32.035,-52.0986,296.63,51,81,6.07,BR,1733160064
437,magong,23.5654,119.5863,295.47,84,31,7.95,TW,1733160066
438,kondopoga,62.2057,34.2614,275.6,84,89,5.59,RU,1733160067
439,kavaratti,10.5669,72.642,300.73,71,100,7.03,IN,1733159956
440,xiaoshan,30.1675,120.2588,282.07,76,0,1.0,CN,1733160069
441,kamyzyak,46.11,48.0736,271.14,86,100,4.0,RU,1733160070
442,christchurch,-43.5333,172.6333,287.54,91,100,3.09,NZ,1733159879
443,puerto aysen,-45.4,-72.7,283.45,87,96,2.35,CL,1733159889
444,selfoss,63.9331,-20.9971,268.96,84,100,6.42,IS,1733160075
445,mossel bay,-34.1831,22.146,295.11,65,60,1.96,ZA,1733160077
446,insar,53.8653,44.3738,265.81,99,53,2.64,RU,1733160078
447,sandnessjoen,66.0217,12.6316,273.38,80,75,7.72,NO,1733159841
448,sinjar,36.3209,41.8754,282.84,46,10,0.49,IQ,1733160080
449,savsat,41.2403,42.3611,270.35,88,21,2.6,TR,1733160082
450,apatity,67.5641,33.4031,269.12,84,100,5.65,RU,1733160083
451,ust'-ilimsk,58.0006,102.6619,246.21,95,30,1.73,RU,1733160084
452,loa janan,-0.583,117.095,296.68,99,86,0.39,ID,1733159944
453,stephenville,32.2207,-98.2023,289.34,44,0,0.0,US,1733159892
454,condom,43.9167,0.3333,285.28,98,100,3.65,FR,1733160087
455,tympaki,35.0729,24.7685,287.1,87,35,0.45,GR,1733160088
456,sampit,-2.5333,112.95,297.52,98,97,1.28,ID,1733160089
457,bulgan,48.8125,103.5347,262.39,75,32,0.87,MN,1733160091
458,tual,-5.6667,132.75,302.18,73,100,2.1,ID,1733160092
459,ialibu,-6.2821,143.9935,286.9,97,100,1.06,PG,1733160093
460,kiama,-34.6833,150.8667,292.8,89,83,4.03,AU,1733160094
461,illizi,26.4833,8.4667,291.98,19,96,4.08,DZ,1733160097
462,kushiro,42.975,144.3747,273.68,80,75,2.06,JP,1733160098
463,clarence town,-32.5833,151.7833,296.45,90,36,1.95,AU,1733160099
464,cill airne,52.05,-9.5167,279.18,87,0,0.51,IE,1733160100
465,camiri,-20.05,-63.5167,295.03,78,100,2.57,BO,1733160101
466,jayapura,-2.5333,140.7,298.81,92,100,1.77,ID,1733160102
467,muntok,-2.0667,105.1833,298.85,87,99,3.19,ID,1733160103
468,ciudad bolivar,8.1222,-63.5497,308.67,31,45,3.83,VE,1733160104
469,ulladulla,-35.35,150.4667,293.46,66,100,2.24,AU,1733160106
470,urengoy,65.9667,78.3667,256.49,91,89,4.98,RU,1733160107
471,kayangel,8.0823,134.7173,302.14,76,40,7.85,PW,1733160109
472,donaldsonville,30.101,-90.9929,288.69,48,7,3.73,US,1733160110
473,la gi,10.6667,107.7833,298.23,83,100,2.83,VN,1733160111
474,tambopata,-12.7333,-69.1833,306.09,62,75,5.14,PE,1733160112
475,lae,-6.7221,146.9847,296.86,86,83,3.05,PG,1733160114
476,carmo do paranaiba,-19.0008,-46.3161,298.01,82,87,4.07,BR,1733160115
477,puerto yuca,2.9383,-73.2083,304.61,55,80,2.72,CO,1733160116
478,jaumave,23.4167,-99.3833,297.62,57,40,1.53,MX,1733160117
479,lauro de freitas,-12.8944,-38.3272,302.16,70,20,8.75,BR,1733160113
480,petrodvorets,59.885,29.8958,275.14,82,92,6.32,RU,1733160119
481,carbonear,47.7332,-53.2148,279.34,88,61,6.59,CA,1733160120
482,visakhapatnam,17.69,83.2093,298.09,83,100,3.09,IN,1733160121
483,lapeer,43.0514,-83.3188,274.27,69,0,3.09,US,1733160124
484,beloyarskiy,63.7119,66.6722,266.6,92,100,3.24,RU,1733159903
485,lazaro cardenas,17.9583,-102.2,301.35,58,0,1.43,MX,1733160126
486,houghton,47.1219,-88.569,273.16,89,100,5.14,US,1733159899
487,rundu,-17.9333,19.7667,304.6,16,24,2.98,NA,1733160128
488,pisco,-13.7,-76.2167,294.18,83,100,4.12,PE,1733160129
489,khoyniki,51.8911,29.9552,273.54,94,42,3.23,BY,1733160130
490,mentougou,39.9392,116.0917,273.02,24,31,0.91,CN,1733160132
491,enriquillo,17.9,-71.2333,302.03,62,33,4.92,DO,1733160133
492,cuito,-12.3833,16.9333,291.35,72,80,1.58,AO,1733160134
493,arkhangel'sk,64.5401,40.5433,278.21,100,100,7.0,RU,1733160135
494,halifax,44.6453,-63.5724,278.42,62,75,3.09,CA,1733159975
495,port isabel,26.0734,-97.2086,299.17,78,100,6.69,US,1733160012
496,el alamo,40.2307,-3.9945,288.24,71,73,2.17,ES,1733160138
497,mili,6.0815,171.735,300.33,82,100,8.03,MH,1733160139
498,kruisfontein,-34.0033,24.7314,292.01,70,99,2.51,ZA,1733160140
499,kovernino,57.1253,43.8142,274.35,95,100,3.5,RU,1733160142
500,polyarnyy,69.1989,33.4478,269.31,92,67,11.92,RU,1733160143
501,miguel ahumada,30.6167,-106.5167,290.08,28,92,2.22,MX,1733160144
502,es castell,39.8795,4.2854,288.53,88,0,2.57,ES,1733160145
503,zakynthos,37.7914,20.8953,286.77,77,40,3.6,GR,1733160146
504,karatuzskoye,53.6072,92.8667,269.03,91,100,1.83,RU,1733160147
505,morehead city,34.7229,-76.726,281.18,47,3,2.68,US,1733160148
506,glazunovka,52.4986,36.3275,273.21,91,100,2.68,RU,1733160150
507,narrabri,-30.3167,149.7833,299.55,66,81,1.79,AU,1733160151
508,al kharijah,25.4514,30.5464,289.86,42,22,3.5,EG,1733160152
509,wotho,10.1657,166.0102,301.22,79,73,10.43,MH,1733160153
510,jaisalmer,26.9147,70.9181,296.37,29,0,3.2,IN,1733160155
511,amga,60.8953,131.9608,243.14,100,92,0.47,RU,1733160157
512,victoria point,-27.5833,153.3,298.1,88,19,0.45,AU,1733160158
513,ambon,-3.6954,128.1814,300.86,95,40,3.09,ID,1733160159
514,ruidoso,33.3317,-105.673,282.23,34,0,3.09,US,1733160091
515,altagracia de orituco,9.8601,-66.3814,304.84,47,55,3.21,VE,1733160161
516,arno,60.1167,18.6333,277.7,94,100,2.86,SE,1733160162
517,la palma,33.8464,-118.0467,290.47,56,75,0.0,US,1733160163
518,oruro,-17.9833,-67.15,290.42,55,40,3.09,BO,1733159895
519,minas,-34.3759,-55.2377,293.21,45,6,8.72,UY,1733160166
520,nikolayevsk-on-amure,53.1406,140.73,262.13,98,87,1.61,RU,1733160167
521,obock,12.25,43.0833,295.09,73,31,6.67,DJ,1733160169
522,jinjing,24.575,118.5972,292.34,79,2,5.66,CN,1733160170
523,beira,-19.8436,34.8389,298.2,78,0,4.63,MZ,1733159886
524,copiapo,-27.3667,-70.3333,301.09,15,0,5.4,CL,1733160172
525,zahedan,29.4963,60.8629,278.1,48,0,2.06,IR,1733160173
526,antsohihy,-14.8796,47.9875,297.45,91,76,1.24,MG,1733160175
527,kobe,34.6913,135.183,284.97,79,1,1.09,JP,1733160086
528,kendari,-3.945,122.4989,298.98,90,100,1.16,ID,1733160177
529,hilo,19.7297,-155.09,292.66,89,1,1.34,US,1733160079
530,zeya,53.75,127.2667,256.49,98,92,0.17,RU,1733160181
531,chai nat,15.1167,100.1,296.68,77,43,1.61,TH,1733160182
532,ketchikan,55.3422,-131.6461,282.41,93,100,10.29,US,1733160183
533,alatyr',54.8421,46.5813,273.35,91,100,3.07,RU,1733160184
534,saucillo,28.0167,-105.2833,293.1,25,100,2.25,MX,1733160185
535,saint johnsbury,44.4192,-72.0151,272.22,73,100,5.14,US,1733160186
536,santa ana,33.7456,-117.8678,292.0,53,75,0.45,US,1733159580
537,bangar,16.8936,120.4243,299.13,79,100,2.23,PH,1733160189
538,kavieng,-2.5744,150.7967,300.75,75,26,0.97,PG,1733160190
539,taoudenni,22.6783,-3.9836,297.98,14,100,4.22,ML,1733160191
540,kill devil hills,36.0307,-75.676,280.36,51,0,4.12,US,1733160192
541,sinop,41.7711,34.8709,274.85,76,0,3.3,TR,1733160193
542,kidal,18.4411,1.4078,298.66,9,41,3.73,ML,1733160194
543,terra santa,-2.1042,-56.4869,310.91,31,62,2.17,BR,1733160195
544,ceerigaabo,10.6162,47.368,289.94,55,30,2.6,SO,1733160196
545,sarangani,5.4033,125.4636,301.17,77,99,4.79,PH,1733160197
546,ambodifotatra,-16.9833,49.85,299.56,77,63,4.8,MG,1733160199
547,luebo,-5.35,21.4167,298.55,76,80,0.06,CD,1733160200
548,tuy hoa,13.0833,109.3,295.78,94,92,1.29,VN,1733160201
549,lekki,6.3607,4.8333,301.47,62,3,3.45,NG,1733160202
550,nizhnyaya poyma,56.1622,97.1933,265.17,97,100,1.16,RU,1733160203
551,toyooka,35.5333,134.8333,283.19,89,3,2.74,JP,1733160204
552,kapa'a,22.0752,-159.319,296.33,78,0,3.09,US,1733160205
553,swainsboro,32.5974,-82.3337,282.18,46,0,4.12,US,1733160206
554,bar,49.0772,27.6826,271.37,91,10,3.3,UA,1733160207
555,malakal,9.5334,31.6605,300.91,25,0,2.52,SS,1733160209
556,urangan,-25.3,152.9,297.41,79,30,4.28,AU,1733160211
557,ad-damazin,11.7891,34.3592,302.04,32,82,3.2,SD,1733160212
558,verkhovazh'ye,60.7472,42.0465,273.67,84,71,5.41,RU,1733160213
559,woodward,36.4337,-99.3904,278.69,60,0,5.66,US,1733160214
560,teningen,48.1295,7.8121,284.53,94,95,4.23,DE,1733160215
561,demopolis,32.5176,-87.8364,283.06,39,0,2.13,US,1733160216
562,sorong,-0.8833,131.25,299.22,89,94,0.7,ID,1733160217
563,lingyuan,41.24,119.4011,267.21,27,0,2.51,CN,1733160219
564,lillesand,58.2488,8.3778,282.23,100,75,0.51,NO,1733160220
565,penaranda de bracamonte,40.9011,-5.2003,284.36,75,45,2.82,ES,1733160221
566,nacala,-14.5428,40.6728,298.68,66,7,2.23,MZ,1733160016
567,saint-jean-de-monts,46.7833,-2.0667,285.4,70,13,7.15,FR,1733160223
568,juan griego,11.0817,-63.9655,303.42,61,29,6.96,VE,1733160224
569,berezovyy,51.6667,135.7,262.78,96,100,0.76,RU,1733160225
570,lorengau,-2.0226,147.2712,300.3,79,87,1.15,PG,1733160226
571,filipstad,59.7124,14.1683,279.96,98,100,3.56,SE,1733160227
572,pitimbu,-7.4706,-34.8086,301.01,70,38,4.69,BR,1733160229
573,cidreira,-30.1811,-50.2056,296.87,55,100,4.4,BR,1733160231
574,guatire,10.4762,-66.5427,302.31,68,92,1.17,VE,1733160232
575,fort bragg,35.139,-79.006,281.38,37,0,5.66,US,1733160233
576,dwarka,22.2394,68.9678,298.26,54,4,4.93,IN,1733160234
577,mahina,-17.5065,-149.489,301.02,78,20,3.09,PF,1733160235
578,i-n-salah,27.1935,2.4607,293.76,17,29,4.02,DZ,1733160236
579,bol'shoye kozino,56.4045,43.7147,273.14,100,100,3.0,RU,1733160240
580,saudarkrokur,65.7461,-19.6394,264.86,73,97,3.66,IS,1733160241
581,thunder bay,48.4001,-89.3168,268.14,68,40,5.14,CA,1733160242
582,zemio,5.0314,25.1361,298.97,35,3,0.29,CF,1733160243
583,birzebbuga,35.8258,14.5269,289.53,72,20,4.12,MT,1733160244
584,tocopilla,-22.092,-70.1979,294.39,71,22,4.19,CL,1733160245
585,weno,7.4515,151.8468,301.95,78,48,4.37,FM,1733160247
586,thinadhoo,0.5333,72.9333,301.06,76,100,8.35,MV,1733160074
587,san pedro pochutla,15.7333,-96.4667,304.99,45,80,2.01,MX,1733160249
588,nevada,39.2502,-116.7512,276.14,21,56,0.34,US,1733160250
589,forest,37.3638,-79.2897,275.92,43,0,4.12,US,1733160251
